{
  "staff": [
    {
      "lat": 35.795409,
      "long": 51.514007,
      "name": "Sepehr Kheirkhah",
      "distance": 9312.041393908949
    },
    {
      "lat": 35.775137,
      "long": 51.414559,
      "name": "Negar Jamalian",
      "distance": 165.86976190004603
    },
    {
      "lat": 35.776273,
      "long": 51.413465,
      "name": "Fahime Babaei",
      "distance": 8.260836158739012
    },
    {
      "lat": 35.677099,
      "long": 51.408197,
      "name": "Sajjad Sahabi",
      "distance": 11046.06994207781
    },
    {
      "lat": 35.737664,
      "long": 51.474583,
      "name": "Aram Altoni",
      "distance": 6992.765845294734
    },
    {
      "lat": 35.790938,
      "long": 51.380427,
      "name": "Mohsen Jafarnia",
      "distance": 3394.6032092292244
    },
    {
      "lat": 35.811883,
      "long": 51.402957,
      "name": "Benyamin Izadjou",
      "distance": 4063.957926215987
    },
    {
      "lat": 35.741406,
      "long": 51.411067,
      "name": "Mehdi Naghavi",
      "distance": 3891.2571263969326
    },
    {
      "lat": 35.751923,
      "long": 51.220925,
      "name": "Mahta Kolahdouz",
      "distance": 17584.780952951274
    },
    {
      "lat": 35.750758,
      "long": 51.441401,
      "name": "Saeed Sadeghi",
      "distance": 3800.1522463792567
    },
    {
      "lat": 35.773203,
      "long": 51.444534,
      "name": "Fatemeh Eskandarzadeh",
      "distance": 2823.066338750735
    },
    {
      "lat": 35.74836,
      "long": 51.580458,
      "name": "Mohammad Zamani",
      "distance": 15384.08445136046
    },
    {
      "lat": 35.658118,
      "long": 51.55663,
      "name": "Amirhoushang Navaei",
      "distance": 18434.77484173023
    }
  ]
}